name,long,lat
Zhenghua-Jelapang RC,103.76521871842,1.38545862987542
Zhenghua-Segar Meadows RC,103.77044236113,1.38754536361899
Zhenghua-Segar RC,103.772637244026,1.38894623898143
Zhenghua-Senja Square RC,103.763180918248,1.38615206128347
Zhenghua-Senja View RC,103.757710471844,1.38660274955074
Zhenghua-Segar Palmview RC,103.767301520764,1.38911205749405
Limbang Green RC,103.744955495219,1.39632680498523
Limbang Park RC,103.742049281495,1.38883086637936
Limbang View RC,103.742586100094,1.39367280318271
Stagmont Park RC,103.747911197359,1.39461111659513
Stagmont View RC,103.746937307612,1.39237534066513
Marsiling Zone '1' RN,103.772918125345,1.44337609505476
Marsiling Zone '2' RN,103.777182725474,1.44134503221688
Marsiling Zone '3' RN,103.778949143879,1.43911242295206
Zone G RC @ Sengkang South,103.874322932502,1.38842868211174
Zone H RC @ Sengkang South,103.874688916531,1.39121037243698
Zone I RC @ Sengkang South,103.874486027557,1.39354731919655
Teck Ghee Zone 'A' RC,103.854726502113,1.36167766250144
Teck Ghee Zone 'D' RC,103.851616001608,1.36319555430326
Yew Tee Zone '11' RC,103.74801394201,1.40407880037979
Hong Kah North Zone '3' RN,103.746516661112,1.36139507262983
Chong Pang Zone '8' RC,103.838824733453,1.43700348286206
Bedok Reservoir-Punggol Garden RN,103.92483267612,1.33641984275237
Bedok Reservoir-Punggol Rise RN,103.919288381957,1.33546648882481
East Canberra Zone 1 RN,103.833142449811,1.44976516664705
Chong Pang Zone '5' RC,103.834091375662,1.43221789557252
Bukit Panjang Zone '6' RC,103.774462092189,1.37757316664731
Bukit Panjang Zone '7' RC,103.771833656021,1.38007208734474
Bukit Panjang Zone '9' RC,103.770505116097,1.38545924261891
Bukit Timah Zone '5' RC,103.764787029237,1.31738023408717
Ridges RC,103.764441229909,1.31908893618758
Boon Lay Zone 'D' RN,103.711850430873,1.34507675973785
Boon Lay Zone 'E' RN,103.704400731768,1.34508009566696
Telok Blangah 'Blangah Court' RC,103.810096960247,1.27204426882694
Telok Blangah 'Blangah Garden' RC,103.811106669802,1.27524542573457
Admiralty Zone '8' RN,103.805892491557,1.4402996043522
Compassvale Mast RN,103.894575876007,1.39019936076361
Whampoa Drive RC,103.861236377993,1.32769993619258
Telok Blangah Dover Crescent RC,103.783584398087,1.30706973369828
Telok Blangah Dover Road RC,103.78263721084,1.30406012012007
Thomson Sin Ming Garden RC,103.834093505521,1.36294454444844
Bukit Batok East Toh Guan Park RC,103.743476647228,1.33952464394671
Bukit Batok East Toh Guan View RC,103.747111256321,1.33960582892471
Whampoa Rajah Court RC,103.853872527153,1.32857909272229
Zhenghua-Senja RC,103.759758918584,1.38668547512946
Bedok Reservoir-Punggol Heights RC,103.894050579171,1.37477275865325
Marsiling Zone '9' RN,103.776294112245,1.43585649603639
Bishan North Zone '2' RC,103.845962916789,1.35760845055583
Bishan North Zone '3' RC,103.843963455351,1.36033727295522
Clementi Meadows RN,103.765901270932,1.32143825190557
Toh Yi RN,103.774569828255,1.33851206202249
Queenstown Rumah Tinggi Zone RC,103.808205292377,1.28881614850014
Queenstown Stirling View Zone RC,103.802362950841,1.29069965123049
Chong Pang Zone '6' RC,103.831606588207,1.43628385042208
Chong Pang Zone '7' RC,103.837771055635,1.43962488840979
Bedok Reservoir-Punggol Harmony RC,103.896537722938,1.37517507134163
Bedok Reservoir-Punggol Parkview RC,103.901070790195,1.37801000402671
Bedok Reservoir-Punggol Vale RC,103.889038097758,1.37239535523757
Bedok Reservoir-Punggol Park Crescent RC,103.900405992861,1.37518254097328
Bedok Reservoir-Punggol Capeview RC,103.903841964129,1.37830875828283
Eunos Zone '1' RN,103.912364859267,1.33183921045179
Moulmein Farrer Park RC,103.851400083055,1.311600755426
Moulmein Owen RC,103.850622813101,1.31424120462813
Moulmein Tekka RC,103.852546288113,1.30849052094512
Bukit Merah View Zone 'A' RC,103.820830019013,1.28352754999811
Bukit Merah View Zone 'B' RC,103.823819208984,1.28357869754726
West Coast Ville RC,103.766529800927,1.30434109311372
West Coast Vista RC,103.762746230048,1.30440045564394
Greenville RC,103.903274609461,1.32845730154967
View RC,103.900492070389,1.32650664623277
Marine Crescent Gardens RC,103.913087962095,1.30473348428877
Eunos Zone '9' RN,103.910623674092,1.33197886360406
Tampines East Zone '1' RN,103.952832232535,1.35191743251654
Henderson Crescent RC,103.820464881267,1.28786782404902
Boon Tiong RC,103.831950301007,1.28658877782197
Jalan Membina RC,103.82723671891,1.28302965363302
Kampong Tiong Bahru East RC,103.827537254034,1.27828763307174
Kim Tian East RC,103.828880687487,1.28162342746278
Eunos Village RC,103.89785495138,1.318226614501
Rivervale Village RC,103.906494415023,1.39317368582046
Rivervale Vista RC,103.905458978888,1.39454067766739
Tampines Green RN,103.945183628021,1.3507023664785
Tampines Grove RN,103.931406006121,1.34941515311222
Tampines Palmspring RN,103.940762778869,1.34749509512904
Tampines Palmsville RN,103.939761053128,1.35097635583626
Tampines Park RN,103.942181036102,1.34923238598166
Tampines Polyview RN,103.93737155793,1.34574956679516
Tampines Summerville RN,103.940290418327,1.34863106996279
Tampines Terrace RN,103.933409218579,1.34690555575783
Tampines Grace RN,103.928804430949,1.35158903340914
Bukit Panjang Zone '10' RC,103.770742195847,1.38328363761776
Nee Soon Central Zone '8' RN,103.836596323577,1.42518005806829
Yishun Green RN,103.849303016624,1.4260701139234
Yishun Riverwalk RN,103.846517135435,1.43241464167596
Keat Hong Zone '1' RN,103.745498997207,1.3840983030698
Keat Hong Zone '2' RN,103.741833632087,1.38464413842548
Keat Hong Zone '3' RN,103.738115487874,1.37961820477491
Keat Hong Zone '4' RN,103.73482201117,1.37898637690977
Keat Hong Zone '5' RN,103.740252439191,1.37817045260293
Keat Hong Zone '6' RN,103.743072731291,1.37925042924038
Boon Lay Zone 'F' RN,103.702315285031,1.34446132877907
Boon Lay Zone 'G' RN,103.714301455412,1.34278860897021
Boon Lay Zone 'H' RN,103.702203678914,1.34187729614084
Admiralty Zone '10' RN,103.79777025669,1.43084071900923
Admiralty Zone '5' RN,103.804264117163,1.44075549001826
Admiralty Zone '6' RN,103.807433139131,1.44268597858008
Admiralty Zone '7' RN,103.79861962258,1.4343561717045
Boon Lay Zone 'J' RN,103.698796962748,1.34152011490194
Boon Lay View RN,103.712084218959,1.35085258962124
Telok Blangah Depot Heights RC,103.811571536842,1.28054679594446
Teban Vista RN,103.738518391814,1.32378354829854
Buona Vista Commonwealth Crescent RC,103.799976945576,1.30795874923664
Clementi Avenue 2 RC,103.769854783022,1.31349291565233
Dakota (Mountbatten) RC,103.888505582146,1.3072853386231
Farrer Gardens RC,103.808061968709,1.31883225067726
Jalan Besar Bendemeer RC,103.86140380381,1.31817642143809
Joo Seng (Geylang Serai) RC,103.880231508421,1.33550131541385
Bukit Batok East Jurong East View RC,103.741941860732,1.33719146952328
Kampong Chai Chee Ruby Heights RN,103.936343487973,1.33001010771896
Kampong Glam Beach Road RC,103.862781483142,1.30431042057049
Keat Hong Axis-Colours RC,103.745170892603,1.37604417474385
Kebun Baru View RC,103.835766570784,1.37127864296719
Kolam Ayer Whampoa South RC,103.866786879198,1.32112027532075
Old Airport (Mountbatten) RC,103.884678208212,1.31004799754599
Pine Close (Mountbatten) RC,103.882688424946,1.30704305553309
Ping Yi Greens RC,103.923848195883,1.32687043732513
Ping An RC,103.920738194528,1.32510871581046
Ping Yi Garden RC,103.922415811731,1.32930431088664
Queenstown Strathmore Avenue Zone RC,103.807789237891,1.29380260098577
Redhill Gardens RC,103.81943493767,1.28742209967026
Tampines North SunPlaza RC,103.947308957507,1.35827221167503
Tanjong Rhu (Mountbatten) RC,103.883694828827,1.30082885446221
Yew Tee Zone '10' RC,103.748997450018,1.3978267953659
Bishan North Zone '4' RC,103.843324416914,1.35898310313404
Everspring RN,103.850122717054,1.42763782271387
Kampong Chai Chee Bedok Town Centre RN,103.927990983361,1.32565627838486
Kampong Chai Chee Garden Hill RN,103.92889375729,1.32868928731424
Kampong Chai Chee Linear Green RN,103.934772221994,1.32520370991927
Kampong Chai Chee Rainbow Ville RN,103.933926943291,1.32937491911239
Longvale RN,103.93582197693,1.33655000875481
Matilda RN,103.895494118351,1.40235850273563
Pasir Ris Zone '1' RN,103.954870575073,1.36892656893478
Pasir Ris Zone '10' RN,103.959056955263,1.36624733181184
Pasir Ris Zone '11' RN,103.962078615696,1.36226594574083
Pasir Ris Zone '2' RN,103.955451675242,1.37193961910318
Pasir Ris Zone '20' RN,103.954864285149,1.36956993074855
Pasir Ris Zone '3' RN,103.95963742037,1.37141487858352
Pasir Ris Zone '4' RN,103.960557827667,1.37360345345974
Pasir Ris Zone '7' RN,103.962287770446,1.36630332038319
Pasir Ris Zone '8' RN,103.961722376679,1.37101229693268
Pasir Ris Zone '9' RN,103.9624580243,1.37073378688977
Punggol Cascadia RN,103.898407771219,1.40890165160639
Punggol CloverCrest RN,103.902910898023,1.39877826808137
Punggol Jewel RN,103.896616090591,1.40479713290427
Punggol SapphiRes RN,103.898358930385,1.40331377225975
Punggol Seas RN,103.899613560858,1.40076048643597
Punggol Suncress RC,103.917348689222,1.40077122049904
Sembawang Zone 'F' RN,103.805163552991,1.44593377163327
Taman Jurong Zone 'G' RN,103.724304153067,1.32841510658003
Teck Ghee Care RN,103.848396338892,1.36511766468525
Teck Ghee Vista RN,103.846310020067,1.36464744818549
The Peak RN,103.84479609873,1.33669264303253
Waterway RN,103.900906243443,1.40775424589744
Sengkang West Zone 'D' RC,103.886489262509,1.39029889319824
Bukit Panjang Zone '5' RC,103.770840740498,1.38092146226577
Jalan Besar Boon Keng Ville RC,103.870688917316,1.31526353059367
Kolam Ayer Geylang Bahru RC,103.868295292839,1.32364514235488
Woodgrove Zone '9' RC,103.77477428549,1.42886830899667
Kolam Ayer St George's East RC,103.862995085455,1.32372378936715
Teck Ghee Zone 'E' RC,103.854043383487,1.36494601115774
Teck Ghee Zone 'F' RC,103.84926484403,1.3679770427533
Teck Ghee Zone 'G' RC,103.859377200428,1.36701963539812
Teck Ghee Zone 'H' RC,103.856692412579,1.36408619045684
Teck Ghee Zone 'K' RC,103.840518888664,1.36558833435488
Yio Chu Kang Zone '1' RC,103.838150010666,1.36739611753333
Yio Chu Kang Zone '2' RC,103.84161807484,1.36880359095651
Yio Chu Kang Zone '3' RC,103.843437607309,1.36970225433654
Yio Chu Kang Zone '4' RC,103.846231528608,1.37109648927558
Yio Chu Kang Zone '5' RC,103.836736035053,1.37932777204249
Yio Chu Kang Zone '6' RC,103.83877665983,1.37746746842054
Cheng San Zone 'C' RC,103.854823106936,1.37056143696828
Punggol Meridian RC,103.907555604233,1.39579971735497
Punggol Oasis RC,103.908783681083,1.39831055136608
Punggol Oceanus RC,103.910880675524,1.3987520243871
Punggol Periwinkle RC,103.906485657684,1.40137200290519
Punggol Greendale RC,103.911433941747,1.39533466958016
Compassvale Aspella RC,103.894452831953,1.38291028525959
Compassvale Beacon RC,103.899291180216,1.38514491239347
Compassvale Gardens RC,103.896980391624,1.39259785071737
Hong Kah North Zone '8' RN,103.699782251278,1.34942545429356
Teban Gardens RN,103.73987253145,1.32184395752633
Marsiling Zone '4' RN,103.774921570434,1.43333327576465
Kolam Ayer Sims Vista RC,103.878383828735,1.31649948259963
Queenstown Mei Ling Zone RC,103.803699304842,1.29490306952103
Queenstown Queensway Zone RC,103.800026532515,1.29407333234124
Tampines-Changkat Zone '4' RN,103.952816065919,1.35001073882934
Tampines-Changkat Zone '5' RN,103.950427515109,1.34869181857355
Tampines Changkat Zone '8' RN,103.959873499831,1.35693800555856
Thomson Sin Ming Court RC,103.831431582827,1.35840616040987
Thomson Sin Ming Ville RC,103.837458615561,1.35533984325744
Toa Payoh Central Zone '1' RC,103.850524642663,1.3367462517811
Toa Payoh Central Zone '2' RC,103.850092887768,1.33390099562747
Admiralty Zone '4' RC,103.795127479031,1.42774540854702
Henderson CityVue RC,103.821889227589,1.28801714966464
Punggol BayVue RN,103.897761573529,1.41205709758138
Hong Kah North Zone '9' RN,103.703280489358,1.35286554900406
Kolam Ayer Kallang Bahru RC,103.868340800907,1.32036883993844
Cashew Zone '4' RC,103.764046026721,1.38249520442484
Sunset Way RC,103.770132359228,1.32368400388633
Ghim Moh Gardens RC,103.787432236811,1.30989225563029
Zhenghua-Greenridge RC,103.768439870828,1.38781352896245
Telok Blangah 'Blangah Square' RC,103.808639191757,1.2749107609609
Telok Blangah 'Blangah View' RC,103.80974464133,1.27349302836712
Tampines Spring RC,103.931478811435,1.35132607390816
Tampines Sunrise RC,103.937479925984,1.35617253659733
West Crest West Valley RN,103.741240006781,1.3527225805073
West Terra RN,103.743011113007,1.35276732484996
West Ridges RN,103.738704484591,1.3555681614266
Sengkang West Zone 'E' RC,103.877906067697,1.38923122623451
Sengkang West Zone 'F' RC,103.876330404049,1.39255039943925
Sengkang West Zone 'J' RC,103.87801040009,1.39745479177128
Sengkang West Zone 'K' RC,103.888065441497,1.3957171187151
Sengkang West Zone 'L' RC,103.888490158983,1.39857707107227
Sengkang West Zone 'N' RC,103.881104303961,1.39677176855867
Buona Vista Commonwealth Close RC,103.801041123691,1.30491413838402
Buona Vista Zone 'B' RC,103.795646465964,1.30796826387314
Buona Vista Zone 'C' RC,103.794443581197,1.30755591757783
Buona Vista Zone 'D' RC,103.794063126379,1.3090539417206
Buona Vista Commonwealth Drive RC,103.796581742159,1.30205877531336
Queenstown Hock San Zone RC,103.807000522532,1.28713355018091
Queenstown Lengkok Bahru Zone RC,103.811714121449,1.28748904632735
Rivervale Horizon RC,103.906157178196,1.39049646599624
Rivervale Spring RC,103.905022045791,1.38814105023846
Keat Hong Zone '7' RN,103.741578056586,1.38296497687575
Keat Hong Zone '8' RN,103.739234515509,1.38053535593485
Keat Hong Zone '9' RN,103.738349555023,1.37544981801546
Keat Hong Zone '10' RN,103.740360011578,1.37560094711041
Keat Hong Zone '11' RN,103.742970085198,1.37386467805143
Taman Jurong Zone 'A' RN,103.721043765052,1.32748325157873
Hong Kah North Zone '4' RN,103.747418528429,1.36312633507894
Hong Kah North Zone '5' RN,103.749152509272,1.36143857974173
Hong Kah North Zone '6' RN,103.751072299862,1.36002945468114
Hong Kah North Zone '7' RN,103.69960545014,1.34584119664431
Kebun Baru Bestari RC,103.834659051494,1.3694605442537
Kebun Baru Heights RC,103.837486064609,1.37193369333348
Kebun Baru Link RC,103.838123059584,1.37583826761627
Kebun Baru Spring RC,103.841947742203,1.37207664777918
Nee Soon Central Zone '1' RC,103.831727609197,1.42865837793036
Nee Soon Central Zone '2' RC,103.834284719319,1.42651074750178
Nee Soon Central Zone '3' RC,103.828835241504,1.42995455080229
Nee Soon Central Zone '4' RC,103.833049342749,1.42321417590668
Bedok Ixora RC,103.942265303387,1.3234358457363
Siglap East RC,103.944965235932,1.3196396832799
Siglap Lucky Valley RC,103.942732315687,1.32041601686604
Braddell Heights Zone 'A' RC,103.869821836395,1.35424006227483
Braddell Heights Zone 'B' RC,103.877326458902,1.34943810147456
Braddell Heights Zone 'C' RC,103.873842921812,1.34777895788513
Braddell Heights Zone 'D' RC,103.873298146744,1.3524382622265
Braddell Heights Zone 'E' RC,103.869408473871,1.35116857262919
Braddell Heights Zone 'F' RC,103.867164771,1.35284045358613
Eunos Crescent RC,103.902720518398,1.32228655263113
Bukit Batok East Zone '2' RC,103.756604731339,1.35025883873321
Bukit Batok East Zone '3' RC,103.759190092495,1.34926273754949
Clementi Heights RC,103.765863397977,1.31110331320662
Clementi Zone '1' RC,103.76783152583,1.31797800709953
Clementi Zone '2' RC,103.77093445547,1.31790851635071
Clementi Zone '3' RC,103.767487557448,1.31474029044638
Clementi Zone '4' RC,103.762860978505,1.31291218773843
Jurong Central Zone 'A' RC,103.725087234109,1.34809803362352
Jurong Central Zone 'B' RC,103.725435185028,1.35086328592063
Tampines Starlight RC,103.935913224064,1.35881239950179
Nee Soon South Zone 'G' RC,103.844227929951,1.41923753908492
Admiralty Zone '1' RC,103.789608918775,1.43160689316692
Admiralty Zone '2' RC,103.791063270074,1.43298242049881
Admiralty Zone '3' RC,103.795305887062,1.43185685203382
Eunos Zone '2' RN,103.914991050011,1.33182712339744
Eunos Zone '3' RN,103.915599326097,1.3339618615203
Eunos Zone '5' RN,103.906537917969,1.33167116992143
Eunos Zone '7' RN,103.909838953184,1.33056064961448
Eunos Zone '8' RN,103.913274279264,1.33390202634897
Kaki Bukit Bloom RC,103.925595840214,1.33082005747999
Kaki Bukit Green RC,103.929204542006,1.33108906112586
Kaki Bukit Park RC,103.926617408462,1.33269317781937
Kaki Bukit Ville RC,103.93238936638,1.3318799990539
Kaki Bukit Garden RC,103.929129823959,1.33421551578193
Paya Lebar Zone '1' RC,103.888783554134,1.35819556473604
Paya Lebar Zone '2' RC,103.891360578843,1.35493747404849
Paya Lebar Zone '3' RC,103.891722009899,1.35841118227064
Paya Lebar Zone '4' RC,103.891813269293,1.36378961472257
Paya Lebar Zone '5' RC,103.887727364285,1.35313871558187
Paya Lebar Zone '6' RC,103.882841648726,1.3522334240083
Paya Lebar Zone '7' RC,103.886329919539,1.35085298922493
Paya Lebar Zone '8' RC,103.880165369359,1.35221025247391
Boundary Ville RC,103.870259858506,1.35636400649066
Hwi Yoh Court RC,103.870263927825,1.37067352607975
Hwi Yoh Green RC,103.874813500291,1.36725606013586
Hwi Yoh Garden RC,103.872593551544,1.3669585067455
Serangoon Green RC,103.873140477486,1.35755257359307
Hougang Zone '1' RN,103.893184550959,1.36313720166914
Hougang Zone '2' RN,103.895490123271,1.36720841502808
Hougang Zone '3' RN,103.897820392229,1.36840582662017
Compassvale Green RC,103.90177795568,1.39634900961502
Compassvale Haven RC,103.899789900156,1.39224633251672
Compassvale Lodge RC,103.898595699761,1.3963297310227
Nee Soon South Zone ‘H’ RC,103.839839942086,1.41429103504261
Changi Simei Zone '3' RC,103.95720766669,1.34522275478146
Bukit Merah Central RC,103.814983313399,1.28391030593143
Kampong Tiong Bahru West RC,103.826086919831,1.27942670505052
Mt Faber Zone 'B' RC,103.819821920557,1.27655921055305
Redhill Rise RC,103.815878780107,1.28848092883068
Sengkang West Zone 'A' RC,103.889848761212,1.38742376289928
Sengkang West Zone 'B' RC,103.890675457222,1.39290848701227
Sengkang West Zone 'C' RC,103.889000196808,1.39333356931741
Toa Payoh Central Zone '3' RC,103.847631116183,1.33576224499197
Toa Payoh Central Zone '4' RC,103.847449360124,1.33901612149404
Covent-Indus RC,103.828690178432,1.29107461638082
Yio Chu Kang Zone '8' RC,103.842458369798,1.37991704240874
Yio Chu Kang Zone '9' RC,103.843763607539,1.37939517726746
Coral Heights RC,103.950422813522,1.36676412651249
Coral Ris RC,103.949169332019,1.36965311290305
Elias Rise RC,103.944756322317,1.37343253337772
Kebun Baru Grove RC,103.841230965706,1.37626066974614
Cheng San Zone 'B' RC,103.853906592757,1.36697081427661
Orchid Vista RN,103.847288237219,1.41960681953195
Yishun Clover RC,103.846523502778,1.42767562160128
Yishun Floral RC,103.846133065457,1.42233138881771
Kolam Ayer St George's West RC,103.861630808247,1.32340262668194
Kampong Glam Crawford RC,103.860869358915,1.30510417156738
Kampong Glam Kelantan RC,103.858221519767,1.30621515888786
Kampong Glam Rowell Court RC,103.854713903056,1.30743547598073
Kampong Glam Selegie RC,103.850709315997,1.30346095526547
Pinetree RC @ Sengkang South,103.887485098901,1.37827071922727
Kim Tian West RC,103.82564521967,1.28142028220053
Membina Court RC,103.825391035217,1.28362146312754
Silat RC,103.829955560902,1.27730542472353
Toa Payoh Central Zone '5' RC,103.845452865271,1.33220625020422
Toa Payoh Central Zone '6' RC,103.845054643988,1.331466009861
Toa Payoh East Zone '1' RC,103.855646806615,1.33950921284879
Casa Clementi RC,103.768637303114,1.30973330594899
Boon Lay Meadow-Grove RN,103.709733571512,1.34861716714115
Boon Lay Zone 'A' RN,103.713568354858,1.34658609503224
Kent Ville RC,103.851105564327,1.31675706317772
Jalan Besar Upper Boon Keng RC,103.871737015701,1.31312796725674
Toa Payoh View RC,103.84628120074,1.33980523483766
Jalan Besar King George's Ave RC,103.860792028619,1.30787507245699
Kampong Glam Bras Basah RC,103.853347536648,1.29685310048503
Kampong Glam Waterloo RC,103.853991014327,1.3009326729204
Chin Swee RC,103.842303345733,1.28623520720853
Hong Lim RC,103.845766168988,1.2852121886056
Whampoa Lorong Limau RC,103.854232131449,1.32502427502082
Bukit Purmei Zone 'A' RC,103.825328122484,1.27337412903551
Bukit Purmei Zone 'B' RC,103.825887193704,1.27507181641621
Mt Faber Zone 'A' RC,103.819220388691,1.27872402272436
Mt Faber Zone 'C' RC,103.822480998349,1.27351779954138
Sengkang West Zone M RC,103.879574317951,1.39001961656206
Buona Vista Zone 'E' RC,103.791925847137,1.31158064091665
Delta RC,103.810979217491,1.29399774708387
Cantonment Towers RC,103.840070262121,1.27447615929502
Seng Poh RC,103.831070847093,1.2839915903963
Tanjong Pagar Everton Park RC,103.83868224407,1.27667250424952
MacPherson Zone 'E' RC,103.886521328669,1.32337964322862
West Coast Green RC,103.762167772954,1.3057187217028
West Coast Heights RC,103.760411567916,1.31032015742878
Nee Soon South Zone 'A' RC,103.828966747113,1.42610182637331
Nee Soon South Zone 'B' RC,103.832765164695,1.4218391945757
Nee Soon South Zone 'C' RC,103.831345335489,1.41790066819696
Nee Soon South Zone 'D' RC,103.83464898566,1.41475961379508
Nee Soon South Zone 'E' RC,103.838515104987,1.41767034253203
Nee Soon South Zone 'F' RC,103.837338329361,1.41382331998926
Punggol Horizon RC,103.91091439013,1.40066201488313
Punggol Meadows RC,103.915845702066,1.39879750535572
Cheng San Zone 'D' RC,103.850157493124,1.37443139374983
Cheng San Zone 'E' RC,103.853421477337,1.36908945263026
Jalan Kayu Zone '1' RC,103.857022222551,1.37365123423889
Jalan Kayu Zone '2' RC,103.857854588548,1.3705776572827
Jalan Kayu Zone '3' RC,103.870146850078,1.37482522281205
Jalan Kayu Zone '4' RC,103.87339830095,1.37263475884295
Marine Crescent Ville RC,103.912123975887,1.30414963942651
Marine Drive Garden RC,103.908751964782,1.3030875552089
Marine Drive View RC,103.907440545317,1.30337333994455
Marine Terrace Breeze RC,103.9150670222,1.30371587900742
Marine Terrace Haven RC,103.915014012453,1.30530229047514
Marine Terrace Walk RC,103.917229045705,1.30456340613831
Compassvale Plains RC,103.898520290377,1.38986787851604
Compassvale Southgate RC,103.893923648496,1.38831310758384
Compassvale Villa RC,103.8975474119,1.38681828916719
Compassvale Vista RC,103.899719712927,1.38741262361066
Compassvale Ancilla RC,103.892986079995,1.38541559108858
Compassvale Helm RN,103.89055907185,1.38155184863031
Compassvale Cape RN,103.896376751348,1.39794630739546
Rivervale Court RC,103.900312365788,1.38349233371644
Rivervale Gardens RC,103.905111886694,1.38669087811166
Rivervale Grove RC,103.902192106811,1.38684495859723
Pioneer Zone '1' RN,103.706006659247,1.34083503450845
Pioneer Zone '11' RN,103.696648267445,1.34012982349545
Pioneer Zone '12' RN,103.696638818729,1.33689136709064
Pioneer Zone '3' RN,103.695614531822,1.33648744045624
Pioneer Zone '5' RN,103.707499682737,1.34065581150969
Pioneer Zone '6' RN,103.702784352722,1.33894640995608
Pioneer Zone '7' RN,103.704582921776,1.33654939680924
Pioneer Zone '8' RN,103.699425780014,1.33591314658689
Pioneer Zone '9' RN,103.700219203285,1.33925339612415
Pandan Gardens RN,103.747433144237,1.31900920513441
Teban Waterfront RN,103.737791109006,1.32307929245207
Yuhua Zone '1' RC,103.74022287906,1.34372175045737
Yuhua Zone '2' RC,103.741573205707,1.34106750636178
Yuhua Zone '3' RC,103.738985193362,1.33928625574287
Tampines Arcadia RC,103.937111721621,1.35207674351974
Tampines Courtview RC,103.933499184206,1.35670605826191
Tampines Greenvale RC,103.934383364035,1.35904159378304
Tampines Palmwalk RC,103.934535704098,1.35120564660676
Tampines Parkview RC,103.935900111025,1.35430306290678
Delta Avenue RC,103.827334528886,1.29169832774281
Havelock View RC,103.827679725668,1.28994618130307
Jalan Kukoh RC,103.839407064152,1.2873776185742
Rivervale Arc RC,103.909660431254,1.38949149935928
Rivervale Delta RC,103.906213100952,1.39177826642196
Ulu Pandan Zone 'A' RC,103.786331978026,1.30863562615782
Tampines East Zone '4' RN,103.949939715258,1.3537605319329
Tampines East Zone '5' RN,103.948635182301,1.34963010039136
Tampines East Zone '6' RN,103.950733897824,1.35539848104779
Tampines East Zone '7' RN,103.958770015178,1.35530936311846
Tampines Green Meadows RN,103.939593973129,1.35620781466866
Tampines-Changkat Zone '1' RN,103.962266866221,1.35191877092049
Tampines-Changkat Zone '2' RN,103.955225444577,1.35225585000422
Tampines-Changkat Zone '3' RN,103.9474164642,1.34691470899239
MacPherson Zone 'F' RC,103.882860358632,1.32192500974033
MacPherson Residency RC,103.888112907115,1.32989201089642
Bukit Gombak Goodview Garden RC,103.75245246417,1.36486521249991
Bukit Gombak Guilin RC,103.751164498546,1.35551875977521
Bukit Gombak Hillgrove RC,103.754823608273,1.35275159186487
Woodgrove Zone '7' RC,103.782003066679,1.43045950427757
Woodgrove Zone '8' RC,103.785927942288,1.43392831973202
Woodgrove Zone '3' RC,103.793216476276,1.43828220171578
Woodgrove Zone '5' RC,103.790191537598,1.43724908091526
Woodgrove Zone '6' RC,103.793972077253,1.43649097915325
Sriville RC,103.898339984512,1.31718043614121
Ping An Green RC,103.925654812142,1.3283466765075
Yio Chu Kang Zone '7' RC,103.840002271174,1.381561704735
Bukit Batok Zone '11' RC,103.747356801892,1.34369380378574
Tanjong Pagar Plaza RC,103.842741243951,1.27590520126097
Tanjong Pagar Spottiswoode Park RC,103.834878787506,1.27442754089411
The Pinnacle@Duxton RC,103.841274613689,1.27553228139521
Eunos Zone '6' RN,103.908872190511,1.33244991362315
Hwi Yoh Ville RC,103.870584012157,1.36904730442836
Punggol Gems RN,103.90129593037,1.40252317335343
Compassvale Coris RC,103.897031079978,1.3819970277331
Chua Chu Kang Zone '4' RC,103.745841911606,1.3828379356881
Brontosaur Park RC,103.936000880125,1.37594758287424
Coastar RC,103.947376570524,1.37535084483496
Ang Mo Kio-Hougang Zone '8' RC,103.882497242732,1.37670583993849
Ang Mo Kio-Hougang Zone '9' RC,103.87977776993,1.37348306997507
Cheng San Zone 'A' RC,103.853040154765,1.37337446915701
Nee Soon Central Zone '6' RC,103.839312791046,1.41979748227778
Nee Soon Central Zone '7' RC,103.839666794755,1.42307981397327
Yishun Palm Springs RC,103.836398384971,1.43227064427263
Yishun Gardens RC,103.836155458511,1.43331686146396
Yishun Sunshine RC,103.838964722569,1.43498005992555
Yishun Hearts RC,103.83752301078,1.435337473031
Yishun Greenwalk RC,103.843292010844,1.4345059206246
Yishun Jasmine RC,103.845809925192,1.42883924158838
Tampines Ville RC,103.935952394887,1.35173850438617
Sembawang Zone 'B' RN,103.820883633046,1.45360895346077
Ansar RC,103.925001089389,1.32371727806337
Lengkong Tiga RC,103.910697530828,1.32458075687612
Elias View RC,103.942021013316,1.37462984179201
Green Oval Park RC,103.938148547475,1.38076797179957
Hillview @ Elias RC,103.940659594767,1.37757160099851
Pasir Ris Atlantis RC,103.936383542733,1.37755384115138
Pasir Ris Meridian RC,103.934480452297,1.37715361876133
Costa Ris RC,103.947710074125,1.36899452447853
Punggol Coral Tree RN,103.905663785857,1.40440162125556
Punggol Damai RN,103.907861037621,1.40442051719719
Punggol Parc Terraces RN,103.901186083679,1.41090728243885
Punggol Sunrise RN,103.909204129493,1.40528963821515
Punggol Link RN,103.915878608643,1.40279379251274
Punggol Raydew RN,103.918002840058,1.40167255104565
Punggol Coral RC,103.910981498574,1.39378388524043
Punggol Cove RC,103.906569315356,1.39809045829695
Bukit Ho Swee RC,103.833233528805,1.28821319299173
Ang Mo Kio-Hougang Zone '1'RC,103.887136604313,1.37067891550364
Ang Mo Kio-Hougang Zone '2'RC,103.882323505214,1.37051386450356
Ang Mo Kio-Hougang Zone '3'RC,103.8806199431,1.3715455241191
Ang Mo Kio-Hougang Zone '4'RC,103.882388343307,1.37337937105369
Ang Mo Kio-Hougang Zone '5'RC,103.884099372115,1.37337021549436
Ang Mo Kio-Hougang Zone '6' RC,103.878187424869,1.37572956868458
Ang Mo Kio-Hougang Zone '7' RC,103.880281768977,1.3772188518475
Sembawang Zone 'D' RN,103.802661298861,1.44746649596221
Jurong Spring Zone 'D' RC,103.716072728922,1.35291392915541
Jurong Spring Zone 'E' RC,103.71641739803,1.34788416089383
Jurong Spring Zone 'F' RC,103.71885315515,1.35366859509619
Taman Jurong Zone 'B' RC,103.72330612874,1.33388939587916
Taman Jurong Zone 'D' RC,103.720528206083,1.33963604074386
Taman Jurong Zone 'E' RC,103.722395565233,1.33745033948688
Woodlands Zone '7' RN,103.796998851606,1.43542608539826
Cashew Zone '3' RC,103.761516285604,1.38251964969607
Cashew Zone '5' RC,103.764775600066,1.37885365124014
Marsiling Zone '6' RN,103.775977123157,1.43010377495718
Bishan East Zone '6' RC,103.855033183147,1.34662506515626
Thomson Shunfu RC,103.837185219274,1.3514788045653
Bishan Heights RC,103.845156531521,1.35692384450598
Bishan North Zone '1' RC,103.847451982475,1.35453673886356
Hong Kah North Zone '1' RN,103.746031525951,1.36179958755686
Teck Ghee Jubilee RN,103.846887402645,1.36789986996085
Tampines East Zone '2' RN,103.952704023279,1.35401798432019
Tampines East Zone '3' RN,103.947212198517,1.35549050275309
Toa Payoh North Zone '2' RC,103.845226513147,1.34240196908904
Telok Blangah Parcview RN,103.807652259105,1.27621203916566
Nee Soon Central Zone '5' RC,103.836103039038,1.4205793715709
Woodlands Zone '8' RN,103.803192516442,1.43671737846592
Woodlands Zone '9' RN,103.799117869578,1.43698595559977
Bedok Bougainvillea RC,103.93340528706,1.32248962075163
Bedok Bunga Merah RC,103.939847222779,1.32190663639278
Bedok Orchid RC,103.936222129443,1.32209389480633
Bedok Sunflower RC,103.939124525932,1.32283702829756
Changi Simei Zone '1' RC,103.951007443855,1.34301953446595
Changi Simei Zone '2' RC,103.955678508532,1.34731365676614
Changi Simei Zone '4' RC,103.956903461045,1.34360959404174
Parc Lumiere RC,103.95853905405,1.34247709035893
Fengshan Cedar RN,103.941309739956,1.33288899508459
Balam RC,103.88540800234,1.3296823206226
Kreta Ayer RC,103.842463401205,1.28074833067945
Jalan Besar Boon Keng RC,103.860896695276,1.31708802980472
Whampoa Gardens RC,103.857337491664,1.32626356977454
Whampoa McNair RC,103.858250686108,1.32131172981386
Whampoa Towner RC,103.860979749766,1.31982353724453
Whampoa View RC,103.854799927378,1.32227606628757
Potong Pasir Zone '1' RC,103.854370727826,1.34183370128612
Potong Pasir Zone '2' RC,103.865597002044,1.33576029121741
Potong Pasir Zone '3' RC,103.868810596496,1.33369012403378
Potong Pasir Zone '4' RC,103.863599517298,1.33605593904761
Tampines Vista RC,103.931944760139,1.35371258495645
Tampines North Zone '3' RC,103.950148200773,1.35955258017468
Tampines North Zone '4' RC,103.951661284445,1.35742125386873
Tampines North Zone '5' RC,103.953613072507,1.36189868576485
Hougang Zone '4' RN,103.898588742073,1.3704454886097
Hougang Zone '5' RN,103.888264890169,1.36564787366169
Hougang Zone '6' RN,103.89079533636,1.37008344024379
Toa Payoh East Zone '5' RC,103.857761545499,1.33165936329621
Geylang East Grove RC,103.886675677208,1.31838863623896
MacPherson Aljunied Crescent Zone '1' RC,103.885168796429,1.31901275469313
MacPherson Aljunied Crescent Zone '2' RC,103.885423362549,1.32165649733879
MacPherson Zone 'A' RC,103.886293549991,1.32684923065663
MacPherson Zone 'B' RC,103.887203614025,1.32740030691586
MacPherson Zone 'C' RC,103.887996822192,1.32491504231925
Sembawang Zone 'E' RN,103.80110649092,1.44159550066733
Sembawang Zone 'G' RN,103.793193114548,1.44572144754626
Sembawang Zone 'H' RN,103.79873761419,1.44646332455711
Sembawang Zone 'J' RN,103.802849502761,1.44239411314543
Bukit Panjang Zone '8' RC,103.768801165869,1.38230351922009
Gateway View RN,103.763231691,1.32098587798622
Canberra Zone '7' RN,103.814035193874,1.45445318629995
Canberra Skylife RN,103.817027697408,1.44405281033985
Gambas Zone '1' RC,103.822098678492,1.4470356017836
Gambas Zone '2' RC,103.820209046463,1.45038762900387
Jade Dew RN,103.844383981559,1.41998044342861
Bukit Batok Zone '12' RN,103.754650917658,1.34593564751014
Bukit Batok East Nature View RC,103.759046844564,1.34463616946673
Admiralty Zone '9' RC,103.804429888798,1.43809963028268
Canberra Zone '1' RN,103.815820089518,1.44732828255828
Canberra Zone '2' RN,103.816852394031,1.44944133688612
Canberra Zone '3' RN,103.816488466275,1.45245221117561
Canberra Zone '4' RN,103.815580870886,1.4560369974321
Canberra Zone '5' RN,103.817932353429,1.45219746321571
Canberra Zone '6' RN,103.819475592047,1.45199817051583
Yew Tee Zone '12' RC,103.749496164845,1.40174073217003
Yew Tee Zone '7' RC,103.743786302032,1.39942409870146
Bishan East Zone '2' RC,103.851553263879,1.34711902421129
Bishan East Zone '3' RC,103.850312179202,1.34816797657565
Bishan East Zone '4' RC,103.853592511143,1.34642029245314
Bishan East Zone '5' RC,103.854284505545,1.34488600521874
Bukit Batok East Spring View RC,103.75662884005,1.34355359442489
Bukit Batok East Zone '1' RC,103.754738153497,1.34983226368172
Jurong Central Zone 'C' RC,103.725111460287,1.35327578219283
Jurong Central Zone 'D' RC,103.730687892042,1.35012661102034
Jurong Central Zone 'E' RC,103.734573253901,1.34729503214292
Jurong Spring Zone 'A' RC,103.71724756003,1.34659253413456
Jurong Spring Zone 'B' RC,103.720031955507,1.35021069091626
Jurong Spring Zone 'C' RC,103.719396656137,1.35195380825186
Nanyang Zone '5' RC,103.696100645029,1.34923031923075
Bukit Batok Zone '1' RC,103.746381075641,1.34962866479059
Bukit Batok Zone '10' RC,103.745834644105,1.34600053267505
Bukit Batok Zone '2' RC,103.747258227279,1.34899499246365
Bukit Batok Zone '3' RC,103.74715850263,1.35153483927511
Bukit Batok Zone '4' RC,103.74447190755,1.35044711291
Yishun River Vale RC,103.84214569261,1.42923855790688
Jalan Kayu Zone '5' RC,103.875090676588,1.37353761780806
Jalan Kayu Zone '6' RC,103.875246613554,1.37151126989928
Acacia RC @ Sengkang South,103.888186057109,1.37525195927092
Angsana RC @ Sengkang South,103.889725708859,1.3778110303394
Hibiscus RC @ Sengkang South,103.893597446476,1.3775272107324
Maple RC @ Sengkang South,103.885412794283,1.37574544361277
Palmview RC @ Sengkang South,103.889890526114,1.37952941706429
Fengshan Aspen RN,103.939046438374,1.32925881791274
Fengshan Mulberry RN,103.940763688729,1.32769194258337
Fengshan Pine RN,103.935458651157,1.33145573211412
Bukit Batok Zone '5' RC,103.742658133636,1.34814948611637
Bukit Batok Zone '6' RC,103.740909287953,1.34660732592103
Bukit Batok Zone '7' RC,103.749956100273,1.34548007298132
Bukit Batok Zone '8' RC,103.752217339308,1.34719280806457
Bukit Batok Zone '9' RC,103.752597909225,1.34848614747867
Punggol Gardens RC,103.914059785087,1.39550059524015
Bukit Panjang Zone '1' RC,103.766714658715,1.37798469731593
Bukit Panjang Zone '2' RC,103.76985281747,1.37720047596343
Bukit Panjang Zone '3' RC,103.77165651177,1.37526298405197
Bukit Panjang Zone '4' RC,103.775467375907,1.37440259964465
Taman Jurong Zone 'F' RC,103.72104338932,1.33283358419313
Yew Tee Zone '8' RC,103.747524167247,1.40101416105742
Yew Tee Zone '9' RC,103.752052779458,1.40295563395425
Chong Pang Zone '1' RC,103.829071976016,1.43232354853528
Chong Pang Zone '2' RC,103.829347810454,1.43482138645097
Chong Pang Zone '3' RC,103.830148773226,1.43352896233041
Chong Pang Zone '4' RC,103.830253386983,1.43198318860023
Yuhua Zone '4' RC,103.736754209039,1.34137214446027
Yuhua Zone '5' RC,103.730708677428,1.34875785943484
Yuhua Zone '6' RC,103.740057262006,1.34177657804898
Yuhua Zone '7' RC,103.738093360981,1.33775456337191
Geylang Serai RC,103.89659120239,1.31258917209668
Tampines North Zone '6' RC,103.952704907495,1.36300828886632
Tampines North Zone '7' RC,103.957741432609,1.36190675523653
Bukit Gombak Sunshine RC,103.750409722496,1.35628923706621
Chua Chu Kang Zone '1' RC,103.756924620634,1.38092710603597
Chua Chu Kang Zone '2' RC,103.754738726488,1.37913357055261
Chua Chu Kang Zone '3' RC,103.751921310539,1.37748544496417
Woodlands Zone '5' RN,103.797369396622,1.44005836545125
Woodlands Zone '6' RN,103.798887785498,1.44288019238587
Chua Chu Kang Zone '5' RC,103.748137635977,1.38020694954812
Sembawang Zone 'K' RN,103.824578502698,1.450484218206
Woodlands Zone '1' RN,103.790761501739,1.43966937731992
Woodlands Zone '2' RN,103.793474578196,1.44330259673776
Woodlands Zone '3' RN,103.790602762447,1.44479629224386
Woodlands Zone '4' RN,103.795048911761,1.43995507442934
Toa Payoh East Zone '2' RC,103.858779661598,1.33914879833055
Beo Crescent RN,103.828454024694,1.28817133971197
Canberra Zone '8' RN,103.814073168516,1.44747792873209
Jalan Kayu Zone '7' RC,103.879333196929,1.38045230791702
Jalan Kayu Zone '8' RC,103.88006627353,1.38119524023464
Bishan East Zone '1' RC,103.84904106245,1.34681028908282
Taman Jurong Zone 'C' RN,103.721301072728,1.3364809301094
Bedok Reservoir-Punggol Crest RC,103.890971508569,1.37340362594623
Boon Lay Zone 'B' RN,103.705396300851,1.3439945094899
Boon Lay Zone 'C' RN,103.708033297812,1.34509372760706
Toa Payoh East Zone '6' RC,103.853798054348,1.33309079158557
Ah Hood Gardens RC,103.844796781764,1.32855770938618
Toa Payoh Heights RC,103.845731213125,1.33583761968939
Toa Payoh East Zone '7' RC,103.852543131074,1.33717651345097
Toa Payoh North Zone '1' RC,103.849589133167,1.34152911002816
Toa Payoh East Zone '4' RC,103.857828776407,1.33284519879894
Cashew Zone '1' RC,103.768952440278,1.37550298548311
East Canberra Zone 2 RN,103.831439770552,1.44565375583576
East Canberra Zone 3 RN,103.833182405575,1.44419462276572
Chua Chu Kang Zone '6' RC,103.744574239663,1.37829225635697
Chua Chu Kang Zone '7' RC,103.748460045952,1.37604113403428
Nanyang Zone '1' RC,103.689734185563,1.34162139876422
Nanyang Zone '2' RC,103.689772561602,1.34287698055588
Nanyang Zone '3' RC,103.697134595045,1.34594304756888
Nanyang Zone '4' RC,103.691936514521,1.34642680133764
Marsiling Zone '5' RN,103.777670032737,1.43464079631963
Marsiling Zone '7' RN,103.773369825172,1.44540729057289
Woodgrove Zone '1' RC,103.793326214068,1.43371599792133
Woodgrove Zone '2' RC,103.781199571238,1.43608294440149
Changi Simei CC,103.955111,1.344936
Punggol CC,103.891815,1.374379
Woodlands Galaxy CC,103.802611,1.439042
Yew Tee CC,103.744728,1.394918
Yio Chu Kang CC,103.841428,1.381517
Cairnhill CC,103.838865,1.310434
Fengshan CC (Till 3Q 2021),103.939996,1.330499
Thomson CC (Till 1Q 2022),103.845523,1.358588
Fernvale CC (U/C),103.877039,1.391722
Bidadari CC (U/C),103.87167,1.338731
Tengah CC (U/C),103.7345,1.356752
Yuhua CC,103.737066,1.339973
Zhenghua CC,103.771521,1.386807
Leng Kee CC,103.814448,1.289787
imPAct@Hong Lim Green,103.846479,1.286329
Sembawang CC,103.828783,1.451682
Gek Poh Ville CC,103.698726,1.34869
Geylang Serai CC,103.896597,1.31645
Geylang West CC,103.872388,1.315691
Henderson CC,103.823315,1.28601
Hillview CC,103.764266,1.361967
Hong Kah North CC,103.749457,1.359059
Hougang CC,103.892622,1.364757
Hwi Yoh CC,103.873891,1.3736
Jalan Besar CC,103.861787,1.308004
Joo Chiat CC,103.904169,1.307457
Jurong Green CC,103.725342,1.350556
Jurong Spring CC (U/C),103.718156,1.34833
Kallang CC,103.862373,1.317803
Kampong Chai Chee CC,103.931621,1.326985
Kampong Glam CC,103.863598,1.302795
Kampong Kembangan CC,103.912699,1.323155
Kampong Ubi CC,103.90075,1.317846
Cheng San CC,103.84957,1.37178
Chong Pang CC,103.829235,1.430832
Chua Chu Kang CC,103.751904,1.381155
Ci Yuan CC,103.882894,1.375149
Clementi CC,103.768154,1.318815
Dover CC,103.783272,1.30253
Eunos CC,103.915144,1.332553
Fengshan CC (U/C),103.936614,1.330708
Fuchun CC,103.774812,1.42953
Tampines Central CC,103.939684,1.353496
Tampines Changkat CC,103.947688,1.345813
Tampines East CC,103.95462,1.353357
Tampines North CC,103.946603,1.357365
Tampines West CC,103.935633,1.348751
Tanglin CC,103.826877,1.323384
Tanjong Pagar CC,103.841584,1.276167
Teck Ghee CC,103.853536,1.363089
Telok Blangah CC,103.807875,1.274863
The Frontier CC,103.704453,1.34047
The Serangoon CC,103.873928,1.370055
Thomson CC (U/C),103.836262,1.351254
Tiong Bahru CC,103.831883,1.283453
Toa Payoh Central CC,103.850205,1.334935
Toa Payoh East CC,103.8547,1.336275
Toa Payoh South CC,103.859379,1.33489
Toa Payoh West CC,103.844831,1.335383
Ulu Pandan CC,103.789211,1.312009
West Coast CC,103.764832,1.302646
Whampoa CC,103.856979,1.32464
Woodgrove CC,103.785007,1.431771
Woodlands CC,103.788235,1.43973
Katong CC,103.884749,1.300591
Keat Hong CC,103.744924,1.384065
Kebun Baru CC,103.837612,1.373007
Radin Mas CC,103.819753,1.275931
Rivervale CC,103.901775,1.393628
Sengkang CC,103.893906,1.392786
Senja-Cashew CC,103.76466,1.381587
Kim Seng CC,103.830706,1.289683
Kolam Ayer CC,103.869693,1.324154
Kreta Ayer CC,103.843013,1.281193
Jurong Spring CC (Till 1Q 2021),103.717012,1.349421
Kaki Bukit CC,103.926846,1.333382
Yishun Link CC,103.846399,1.425036
MacPherson CC,103.884481,1.323537
Marine Parade CC,103.909545,1.304829
Marsiling CC,103.773615,1.440657
Mountbatten CC (Till further notice),103.884043,1.300178
Nanyang CC,103.69232,1.342364
Nee Soon Central CC,103.836092,1.428036
Nee Soon East CC,103.838488,1.431021
Nee Soon South CC,103.834693,1.415175
Pasir Ris East CC,103.959198,1.368587
Pasir Ris Elias CC,103.942476,1.378429
Paya Lebar Kovan CC,103.886092,1.357799
Pek Kio CC,103.851374,1.313059
Potong Pasir CC,103.867037,1.332536
Punggol 21 CC,103.913464,1.393606
Buangkok CC (U/C),103.892191,1.383435
Limbang Constituency Office,103.744728,1.394918
One Punggol CC (U/C),103.905088,1.408618
Rivervale CC (U/C),103.90232,1.385153
Punggol Park CC,103.896253,1.377734
Punggol Vista CC,103.907289,1.403284
Punggol West CC,103.895665,1.404516
Queenstown CC,103.801305,1.29915
Siglap CC,103.943337,1.321632
Siglap CC (U/C),103.946742,1.317292
Siglap South CC,103.930623,1.313159
Taman Jurong CC,103.721626,1.335307
ACE The Place CC,103.792241,1.427493
Aljunied CC,103.889546,1.354658
Anchorvale CC,103.886666,1.397128
Ang Mo Kio CC,103.840668,1.366833
Ayer Rajah CC,103.74754,1.320799
Bedok CC,103.936048,1.324247
Bishan CC,103.850509,1.349512
Marymount CC,103.841286,1.362138
Boon Lay CC,103.71138,1.348323
Braddell Heights CC,103.870368,1.351612
Bukit Batok CC,103.747514,1.350191
Bukit Batok East CC,103.758196,1.348987
Bukit Merah CC,103.815829,1.285254
Bukit Panjang CC,103.770559,1.376451
Bukit Timah CC,103.77161,1.340501
Buona Vista CC,103.792619,1.309259
Canberra CC,103.819474,1.445044
